{"type":"FeatureCollection","features":[{"type":"Feature","geometry":{"type":"Point","coordinates":[-86.489517,38.860242]},"properties":{"city":"Bedford","state":"IN","population":13768}},{"type":"Feature","geometry":{"type":"Point","coordinates":[-86.524264,39.1637]},"properties":{"city":"Bloomington","state":"IN","population":69291}},{"type":"Feature","geometry":{"type":"Point","coordinates":[-85.767576,38.322082]},"properties":{"city":"Clarksville","state":"IN","population":21400}},{"type":"Feature","geometry":{"type":"Point","coordinates":[-85.918096,39.20894]},"properties":{"city":"Columbus","state":"IN","population":39059}},{"type":"Feature","geometry":{"type":"Point","coordinates":[-86.054091,39.49351]},"properties":{"city":"Franklin","state":"IN","population":19463}},{"type":"Feature","geometry":{"type":"Point","coordinates":[-85.501189,39.351019]},"properties":{"city":"Greensburg","state":"IN","population":10260}},{"type":"Feature","geometry":{"type":"Point","coordinates":[-86.114304,39.604431]},"properties":{"city":"Greenwood","state":"IN","population":36037}},{"type":"Feature","geometry":{"type":"Point","coordinates":[-86.940579,38.393529]},"properties":{"city":"Jasper","state":"IN","population":12100}},{"type":"Feature","geometry":{"type":"Point","coordinates":[-85.696419,38.332696]},"properties":{"city":"Jeffersonville","state":"IN","population":27362}},{"type":"Feature","geometry":{"type":"Point","coordinates":[-85.397135,38.758829]},"properties":{"city":"Madison","state":"IN","population":12004}},{"type":"Feature","geometry":{"type":"Point","coordinates":[-86.420904,39.422141]},"properties":{"city":"Martinsville","state":"IN","population":11698}},{"type":"Feature","geometry":{"type":"Point","coordinates":[-85.827172,38.307344]},"properties":{"city":"New Albany","state":"IN","population":37603}},{"type":"Feature","geometry":{"type":"Point","coordinates":[-85.891285,38.947516]},"properties":{"city":"Seymour","state":"IN","population":18101}},{"type":"Feature","geometry":{"type":"Point","coordinates":[-85.770444,39.538569]},"properties":{"city":"Shelbyville","state":"IN","population":17951}},{"type":"Feature","geometry":{"type":"Point","coordinates":[-87.171808,38.659117]},"properties":{"city":"Washington","state":"IN","population":11380}},{"type":"Feature","geometry":{"type":"Point","coordinates":[-85.455345,37.817665]},"properties":{"city":"Bardstown","state":"KY","population":10374}},{"type":"Feature","geometry":{"type":"Point","coordinates":[-86.438462,36.970919]},"properties":{"city":"Bowling Green","state":"KY","population":49296}},{"type":"Feature","geometry":{"type":"Point","coordinates":[-84.721563,39.022231]},"properties":{"city":"Burlington","state":"KY","population":10779}},{"type":"Feature","geometry":{"type":"Point","coordinates":[-85.350451,37.34479]},"properties":{"city":"Campbellsville","state":"KY","population":10498}},{"type":"Feature","geometry":{"type":"Point","coordinates":[-84.519648,39.03511]},"properties":{"city":"Covington","state":"KY","population":43370}},{"type":"Feature","geometry":{"type":"Point","coordinates":[-84.776042,37.639933]},"properties":{"city":"Danville","state":"KY","population":15477}},{"type":"Feature","geometry":{"type":"Point","coordinates":[-85.877039,37.704338]},"properties":{"city":"Elizabethtown","state":"KY","population":22542}},{"type":"Feature","geometry":{"type":"Point","coordinates":[-84.600135,39.039429]},"properties":{"city":"Erlanger","state":"KY","population":16676}},{"type":"Feature","geometry":{"type":"Point","coordinates":[-84.647016,38.987219]},"properties":{"city":"Florence","state":"KY","population":23551}},{"type":"Feature","geometry":{"type":"Point","coordinates":[-85.967151,37.891641]},"properties":{"city":"Fort Knox","state":"KY","population":12377}},{"type":"Feature","geometry":{"type":"Point","coordinates":[-84.453172,39.081974]},"properties":{"city":"Fort Thomas","state":"KY","population":16495}},{"type":"Feature","geometry":{"type":"Point","coordinates":[-84.865877,38.194966]},"properties":{"city":"Frankfort","state":"KY","population":27741}},{"type":"Feature","geometry":{"type":"Point","coordinates":[-84.545794,38.218745]},"properties":{"city":"Georgetown","state":"KY","population":18080}},{"type":"Feature","geometry":{"type":"Point","coordinates":[-85.925876,37.004842]},"properties":{"city":"Glasgow","state":"KY","population":13019}},{"type":"Feature","geometry":{"type":"Point","coordinates":[-84.547316,38.957218]},"properties":{"city":"Independence","state":"KY","population":14982}},{"type":"Feature","geometry":{"type":"Point","coordinates":[-85.569661,38.205547]},"properties":{"city":"Jeffersontown","state":"KY","population":26633}},{"type":"Feature","geometry":{"type":"Point","coordinates":[-85.741613,38.225371]},"properties":{"city":"Louisville","state":"KY","population":256231}},{"type":"Feature","geometry":{"type":"Point","coordinates":[-85.647377,38.165376]},"properties":{"city":"Louisville","state":"KY","population":256231}},{"type":"Feature","geometry":{"type":"Point","coordinates":[-84.487813,39.085438]},"properties":{"city":"Newport","state":"KY","population":17048}},{"type":"Feature","geometry":{"type":"Point","coordinates":[-84.566024,37.891636]},"properties":{"city":"Nicholasville","state":"KY","population":19680}},{"type":"Feature","geometry":{"type":"Point","coordinates":[-87.119125,37.756764]},"properties":{"city":"Owensboro","state":"KY","population":54067}},{"type":"Feature","geometry":{"type":"Point","coordinates":[-85.934311,37.820032]},"properties":{"city":"Radcliff","state":"KY","population":21961}},{"type":"Feature","geometry":{"type":"Point","coordinates":[-84.290901,37.722645]},"properties":{"city":"Richmond","state":"KY","population":27152}},{"type":"Feature","geometry":{"type":"Point","coordinates":[-85.637758,38.249334]},"properties":{"city":"St. Matthews","state":"KY","population":15852}},{"type":"Feature","geometry":{"type":"Point","coordinates":[-85.228493,38.207246]},"properties":{"city":"Shelbyville","state":"KY","population":10085}},{"type":"Feature","geometry":{"type":"Point","coordinates":[-85.813916,38.198839]},"properties":{"city":"Shively","state":"KY","population":15157}},{"type":"Feature","geometry":{"type":"Point","coordinates":[-84.190586,38.002364]},"properties":{"city":"Winchester","state":"KY","population":16724}},{"type":"Feature","geometry":{"type":"Point","coordinates":[-84.505829,39.140183]},"properties":{"city":"Cincinnati","state":"OH","population":331285}},{"type":"Feature","geometry":{"type":"Point","coordinates":[-84.542716,39.33142]},"properties":{"city":"Fairfield","state":"OH","population":42097}},{"type":"Feature","geometry":{"type":"Point","coordinates":[-84.514541,39.215946]},"properties":{"city":"Finneytown","state":"OH","population":13492}},{"type":"Feature","geometry":{"type":"Point","coordinates":[-84.52568,39.286029]},"properties":{"city":"Forest Park","state":"OH","population":19463}},{"type":"Feature","geometry":{"type":"Point","coordinates":[-84.339031,39.069478]},"properties":{"city":"Forestville","state":"OH","population":10978}},{"type":"Feature","geometry":{"type":"Point","coordinates":[-84.579509,39.246637]},"properties":{"city":"Northbrook","state":"OH","population":11076}},{"type":"Feature","geometry":{"type":"Point","coordinates":[-84.55199,39.217148]},"properties":{"city":"North College Hill","state":"OH","population":10082}},{"type":"Feature","geometry":{"type":"Point","coordinates":[-84.453469,39.160487]},"properties":{"city":"Norwood","state":"OH","population":21675}},{"type":"Feature","geometry":{"type":"Point","coordinates":[-84.433255,39.224101]},"properties":{"city":"Reading","state":"OH","population":11292}},{"type":"Feature","geometry":{"type":"Point","coordinates":[-84.47579,39.290599]},"properties":{"city":"Springdale","state":"OH","population":10563}},{"type":"Feature","geometry":{"type":"Point","coordinates":[-84.60589,39.210415]},"properties":{"city":"White Oak","state":"OH","population":13277}}]}